{
    "id": "c0200a6c-1b8a-4365-9f1b-32d753194335",
    "serialNumber": "CK012345ARB",
    "productDescription": "Aruba AP-215 Dual 3x3:3 802.11ac AP",
    "assetType": "Software",
    "vendor": "HPE",
    "sku": "JW1123",
    "eolDate": "1615161600000",
    "eosDate": "",
    "country": "Great Britain",
    "latitude": "51.5",
    "longitude": "-0.116667",
    "countryCode": "GB",
    "zip": "35132",
    "city": "Port Adanville",
    "address": "Maddison Path Suite 820 Apt. 898",
    "address2": "TODO",
    "status": "Active",
    "assetCoverage": "cCOVERED_ON_CONTRACT",
    "assetTag": "Software",
    "dataQualityScore": "120",
    "resellerId": "97292d03-7919-406c-a15b-39bf029e6d5a",
    "customerId": "5fb52fc3-86fd-4e1f-87cd-0f546fc8989a",
    "customer": {
        "id": "5fb52fc3-86fd-4e1f-87cd-0f546fc8989a",
        "name": "Weber, Gusikowski and Simonis",
        "companyContactPersons": [
            {
                "phoneNumber": "+49 (591) 12345-67",
                "vendor": "HPE",
                "name": "Alice Marks",
                "type": "HARDWARE_CONTACT",
                "mail": "alice@hpe.com"
            }
        ],
        "companyTypes": [
            {
                "type": "CUSTOMER",
                "status": "ACTIVE"
            }
        ],
        "locations": [
            {
                "country": "Great Britain",
                "latitude": "51.5",
                "longitude": "-0.116667",
                "countryCode": "GB",
                "zip": "70618",
                "address": "Maddison Path Suite 820 Apt. 898",
                "city": "Port Adanville",
                "locationType": "HEADQUARTERS"
            },
            {
                "country": "Great Britain",
                "latitude": "51.5",
                "longitude": "-0.116667",
                "countryCode": "GB",
                "zip": "12345",
                "address": "Maddison Path Suite 12345",
                "city": "New Port Adanville",
                "locationType": "HEADQUARTERS"
            }
        ]
    },
    "latestContactPersons": [
        {
            "phoneNumber": "+49 (591) 12345-67",
            "vendor": "HPE",
            "name": "Alice Marks",
            "type": "HARDWARE_CONTACT"
        }
    ]
}
